     2.10           OBSERVATION DATA    M (MIXED)           RINEX VERSION / TYPE
LoggerServer.exe    NIST                24-May-21 23:59     PGM / RUN BY / DATE
The reference is antenna ARP only, mounted on a forced      COMMENT
centering threaded rod that is bolted to a metal tower.     COMMENT
The tower sits on the roof of NIST Building 1.              COMMENT
Signal Strengh values S1,S2 are in dBHz                     COMMENT
NIST                                                        MARKER NAME
49507M002                                                   MARKER NUMBER
NIST                NIST                                    OBSERVER / AGENCY
SWU04029169         NOV OEM4-G2         2.200-L1L2W         REC # / TYPE / VERS
04230007            NOV702          NONE                    ANT # / TYPE
 -1288349.1490 -4721661.0480  4078676.0170                  APPROX POSITION XYZ
        0.0000        0.0000        0.0000                  ANTENNA: DELTA H/E/N
     1     1                                                WAVELENGTH FACT L1/2
     8    C1    L1    D1    S1    P2    L2    D2    S2      # / TYPES OF OBSERV
  2021     5    25     0     0    0.0000000     GPS         TIME OF FIRST OBS
                                                            END OF HEADER
 21  5 25  0  0  0.0000000  0 11G 2G 5G13G15G16G18G20G23G25G26G29
  24948323.30446 131104337.11246     -2313.77746        41.488    24948323.31342
 102159240.15542     -1802.94542        32.289
  21118770.22849 110979983.38849     -2230.43849        48.251    21118769.46146
  86477957.07746     -1738.00846        41.973
  22391130.95147 117666224.54547      1645.00047        44.764    22391131.51143
  91687995.97043      1281.81643        36.345
  22035384.24248 115796782.15848      2890.36748        45.688    22035384.43545
  90231308.59845      2252.23045        40.301
  24957923.21745 131154773.62645      2232.77745        38.980    24957922.79741
 102198537.95541      1739.83241        29.475
  21776395.59448 114435771.45848      2004.16448        46.134    21776396.62945
  89170747.15545      1561.68445        40.389
  20206998.19449 106188571.61349      -736.93849        48.066    20206996.94047
  82744381.50447      -574.23847        44.650
  23096618.24847 121373582.87947      3121.19547        44.006    23096620.84444
  94576839.92044      2432.09844        37.950
  24038919.45046 126325344.89846     -3383.88746        41.740    24038922.66643
  98435378.71143     -2636.79743        35.908
  23867968.82045 125427009.25045       636.65245        40.762    23867972.60643
  97735360.70343       496.09043        35.090
  20250622.56249 106417797.08249       -69.18449        49.870    20250622.30648
  82922972.33448       -53.91448        46.863
 21  5 25  0  0 30.0000000  0 11G 2G 5G13G15G16G18G20G23G25G26G29
  24961539.75245 131173788.75845     -2316.17645        40.186    24961539.53842
 102213358.27842     -1804.97742        34.347
  21131536.66949 111047071.44949     -2242.04749        48.153    21131535.91346
  86530233.48746     -1747.05146        42.345
  22381788.61547 117617128.75147      1628.14847        45.348    22381788.83244
  91649739.54344      1268.68444        36.959
  22018918.28248 115710254.16148      2878.18048        46.337    22018918.48345
  90163884.23845      2242.73445        39.927
  24945219.99045 131088015.78245      2217.76245        38.994    24945219.18841
 102146518.78541      1728.12141        28.955
  21764968.96948 114375723.99448      1999.02048        46.037    21764969.68745
  89123956.94245      1557.67645        40.074
  20211243.23149 106210879.26049      -750.34049        48.098    20211241.98247
  82761764.09047      -584.68447        44.613
  23078822.30547 121280064.29847      3113.37147        43.363    23078824.83944
  94503968.36444      2426.00044        37.092
  24058241.47345 126426881.22745     -3384.94145        41.090    24058244.33544
  98514497.87044     -2637.62544        37.768
  23864385.27145 125408178.11745       618.62145        40.709    23864388.89644
  97720687.09144       482.03944        36.965
  20251068.37749 106420139.48949       -86.94149        50.045    20251068.06748
  82924797.59548       -67.75048        46.593
 21  5 25  0  1  0.0000000  0 11G 2G 5G13G15G16G18G20G23G25G26G29
  24974768.65845 131243308.20645     -2318.23845        39.365    24974768.85943
 102267529.21843     -1806.42243        35.710
  21144369.19649 111114506.34749     -2253.57849        48.292    21144368.38146
  86582780.16446     -1756.03946        42.466
  22372541.32347 117568533.24247      1611.41447        45.268    22372541.30743
  91611872.95843      1255.64543        36.297
  22002522.29048 115624092.85148      2866.00048        45.849    22002522.58645
  90096745.58245      2233.24245        39.851
  24932601.57143 131021707.89243      2203.09043        34.808    24932601.00443
 102094850.34943      1716.69143        34.850
  21753571.65248 114315831.70448      1993.68848        46.270    21753572.52345
  89077287.65845      1553.58645        40.277
  20215565.30949 106233591.94249      -763.79349        47.983    20215564.16047
  82779462.29147      -595.16847        44.648
  23061071.95946 121186784.62246      3105.22746        43.164    23061073.78044
  94431282.94844      2419.65244        38.684
  24077570.99845 126528458.68045     -3386.27345        40.191    24077574.33641
  98593649.03341     -2638.65641        32.206
  23860903.55445 125389881.74545       601.09045        40.855    23860906.97143
  97706430.17143       468.37943        36.243
  20251615.25249 106423013.23949      -104.73049        49.993    20251614.80548
  82927036.87748       -81.61348        46.557
 21  5 25  0  1 30.0000000  0 11G 2G 5G13G15G16G18G20G23G25G26G29
  24988011.17546 131312895.39546     -2320.48446        41.551    24988010.50843
 102321752.97243     -1808.17243        36.003
  21157267.21049 111182285.94949     -2264.97349        48.153    21157266.53246
  86635595.43246     -1764.91846        42.273
  22363389.52247 117520440.39647      1594.80947        44.962    22363389.79644
  91574398.03344      1242.70344        36.838
  21986196.53848 115538301.39148      2853.58648        46.021    21986196.98345
  90029895.14545      2223.57045        39.598
  24920069.46444 130955850.90344      2187.54744        37.389    24920070.50243
 102043503.99743      1704.57843        35.612
  21742204.25548 114256094.95548      1988.71948        46.547    21742205.06545
  89030739.56745      1549.64845        40.051
  20219964.06048 106256708.41148      -777.20748        47.747    20219963.24647
  82797475.13047      -605.61747        44.885
  23043367.16046 121093745.10946      3097.27346        42.992    23043368.92844
  94358784.69144      2413.45744        38.273
  24096907.55045 126630074.13145     -3387.78545        40.853    24096911.22341
  98672829.83941     -2639.83641        30.662
  23857523.71046 125372120.33146       583.15246        41.434    23857527.38943
  97692590.12943       454.40243        36.628
  20252263.44149 106426419.31649      -122.35549        49.918    20252262.89848
  82929690.96448       -95.34448        46.532
 21  5 25  0  2  0.0000000  0 11G 2G 5G13G15G16G18G20G23G25G26G29
  25001265.61444 131382550.82944     -2323.07044        37.852    25001265.55343
 102376029.84543     -1810.19143        35.668
  21170230.25349 111250407.49449     -2276.43849        47.862    21170229.79746
  86688677.14946     -1773.85246        42.687
  22354333.71047 117472852.75047      1577.86347        44.315    22354334.14443
  91537316.77643      1229.50043        36.610
  21969941.70648 115452882.87748      2841.05948        45.712    21969942.23945
  89963335.30845      2213.80945        41.103
  24907624.28844 130890449.03844      2171.96544        37.863    24907623.28043
 101992541.49543      1692.43843        35.170
  21730866.45048 114196514.22248      1983.42248        46.400    21730867.10145
  88984313.05645      1545.52045        40.150
  20224439.48049 106280227.59349      -790.67649        48.134    20224438.96047
  82815801.76447      -616.11347        44.535
  23025708.27146 121000947.14646      3089.09046        42.698    23025710.23244
  94286474.64644      2407.07844        36.826
  24116251.01145 126731724.70645     -3389.05545        40.323    24116254.86041
  98752038.01441     -2640.82441        29.192
  23854245.53945 125354894.08245       565.39545        40.980    23854249.54143
  97679167.06443       440.56243        36.646
  20253012.99949 106430358.42149      -140.26649        49.993    20253012.54748
  82932760.40448      -109.30148        46.616
 21  5 25  0  2 30.0000000  0 11G 2G 5G13G15G16G18G20G23G25G26G29
  25014533.19344 131452274.26144     -2325.63744        38.518    25014533.72142
 102430359.73742     -1812.18842        33.270
  21183257.99249 111318869.03749     -2287.66449        47.823    21183257.76046
  86742023.79146     -1782.59846        42.849
  22345374.67648 117425772.78548      1560.96148        45.781    22345374.96343
  91500631.11743      1216.32843        34.638
  21953758.43547 115367840.35147      2828.65247        45.490    21953759.18445
  89897068.46145      2204.14145        40.313
  24895265.34443 130825503.42243      2157.51243        36.277    24895265.58541
 101941934.55641      1681.18441        25.160
  21719558.50348 114137089.97548      1978.16448        46.734    21719559.06045
  88938008.47545      1541.42245        40.361
  20228991.37249 106304148.13449      -803.93049        47.863    20228991.05847
  82834441.14947      -626.44147        44.969
  23008095.51147 120908391.94747      3081.08647        43.755    23008097.28343
  94214353.77143      2400.84443        35.843
  24135600.66045 126833407.44845     -3389.73045        39.940    24135604.45443
  98831271.24543     -2641.35243        35.950
  23851069.31045 125338203.17045       547.62945        41.054    23851073.33143
  97666161.16143       426.71943        36.198
  20253864.16149 106434831.63849      -157.98849        49.831    20253863.94948
  82936246.02148      -123.10948        46.731
 21  5 25  0  3  0.0000000  0 11G 2G 5G13G15G16G18G20G23G25G26G29
  25027814.36245 131522066.02945     -2327.50845        40.359    25027814.42643
 102484742.88543     -1813.64543        34.663
  21196350.15249 111387668.01049     -2298.85549        48.239    21196349.85546
  86795633.37446     -1791.32046        42.390
  22336512.78348 117379202.61248      1543.71148        45.844    22336512.72643
  91464342.67243      1202.88743        36.437
  21937647.35547 115283176.99747      2815.76247        45.397    21937648.01945
  89831097.05645      2194.09845        40.893
  24882994.04444 130761016.18844      2142.34044        38.163    24882994.62041
 101891684.81241      1669.35941        30.570
  21708280.38148 114077822.64648      1972.95748        46.724    21708280.79245
  88891826.16645      1537.36745        40.281
  20233619.35249 106328468.53449      -817.36749        47.920    20233619.13847
  82853392.10647      -636.91447        45.268
  22990529.39347 120816080.89847      3072.93047        43.533    22990530.69444
  94142423.11444      2394.48844        36.955
  24154955.69345 126935119.44245     -3390.83245        40.023    24154959.69542
  98910527.26242     -2642.21142        32.988
  23847994.84845 125322047.70345       529.79745        41.109    23847999.15143
  97653572.50543       412.82443        35.905
  20254817.01849 106439839.47849      -175.80949        49.850    20254817.05848
  82940148.22848      -136.99648        46.729
 21  5 25  0  3 30.0000000  0 10G 2G 5G13G15G18G20G23G25G26G29
  25041108.01444 131591926.42344     -2329.63344        38.375    25041107.84943
 102539179.54843     -1815.30143        35.920
  21209505.88249 111456802.12849     -2310.05549        47.788    21209505.64446
  86849504.10246     -1800.04746        42.632
  22327748.20247 117333144.62947      1526.71547        45.021    22327748.11643
  91428453.36743      1189.64543        35.687
  21921609.31248 115198895.98448      2803.02348        46.055    21921610.01645
  89765423.58745      2184.17245        40.855
  21697032.06848 114018712.69648      1967.69948        46.717    21697032.50845
  88845766.48145      1533.27045        40.703
  20238323.21749 106353187.46749      -830.64849        47.888    20238322.99547
  82872653.61547      -647.26247        44.383
  22973009.80146 120724015.26446      3065.02046        43.243    22973011.48944
  94070683.71844      2388.32844        36.731
  24174315.78645 127036857.72745     -3391.62545        39.946    24174320.01042
  98989803.76342     -2642.82842        34.176
  23845022.80046 125306427.87846       511.96546        41.301    23845026.75844
  97641401.19744       398.93044        36.762
  20255871.87149 106445382.78249      -193.73049        49.899    20255871.97248
  82944467.68148      -150.96148        46.428
 21  5 25  0  4  0.0000000  0 11G 2G 5G13G15G16G18G20G23G25G26G29
  25054415.04544 131661855.44944     -2332.11344        38.320    25054415.14242
 102593669.56242     -1817.01642        34.083
  21222724.77448 111526268.79048     -2321.10248        47.383    21222724.67946
  86903633.95046     -1808.65246        42.345
  22319081.41847 117287601.05847      1509.33647        44.874    22319081.20943
  91392964.91043      1176.10243        36.297
  21905644.89448 115115000.84248      2790.00048        46.338    21905645.18246
  89700050.78146      2174.02346        41.139
  24858712.24744 130633409.91944      2111.22744        37.149    24858712.47141
 101792279.08141      1645.10941        26.198
  21685813.72048 113959760.56348      1962.51648        46.383    21685814.44146
  88799829.78746      1529.23046        41.182
  20243102.62149 106378303.48949      -843.71549        48.004    20243102.38947
  82892224.54547      -657.44147        44.643
  22955536.67946 120632196.28446      3056.44546        43.275    22955539.05444
  93999136.52944      2381.64144        37.570
  24193680.52945 127138619.36145     -3392.56245        40.016    24193685.31143
  99069098.45543     -2643.55943        35.532
  23842152.52246 125291343.67046       493.91046        41.178    23842156.59044
  97629647.28244       384.86344        37.395
  20257028.70949 106451461.95549      -211.57449        49.864    20257028.79148
  82949204.69348      -164.86748        46.639
 21  5 25  0  4 30.0000000  0 11G 2G 5G13G15G16G18G20G23G25G26G29
  25067735.46845 131731853.15645     -2334.37145        39.868    25067734.57142
 102648213.18042     -1818.99242        32.342
  21236006.53448 111596065.74648     -2332.02348        47.661    21236006.57746
  86958021.16646     -1817.16446        42.342
  22310513.13947 117242574.12747      1492.28547        45.277    22310513.02544
  91357879.00844      1162.81644        36.817
  21889754.22548 115031493.96848      2777.12548        45.992    21889754.27945
  89634980.51145      2163.99245        40.096
  24846705.86744 130570310.07744      2095.48444        38.232    24846706.01241
 101743110.36141      1632.84041        15.515
  21674625.64648 113900966.76048      1957.11748        46.576    21674625.99245
  88754016.44645      1525.02345        40.282
  20247957.38649 106403815.34949      -857.15249        48.095    20247957.00747
  82912103.91647      -667.91447        44.934
  22938111.28147 120540625.29347      3048.00447        43.408    22938113.81544
  93927782.58944      2375.06644        37.883
  24213049.12745 127240401.44045     -3393.38345        39.958    24213053.89643
  99148409.08743     -2644.19943        35.060
  23839384.38446 125276795.22746       476.10246        41.698    23839387.74943
  97618310.81143       370.98443        35.503
  20258287.80149 106458077.96449      -229.48449        50.052    20258287.56048
  82954360.01748      -178.82048        46.434
 21  5 25  0  5  0.0000000  0 11G 2G 5G13G15G16G18G20G23G25G26G29
  25081068.68345 131801919.55245     -2336.71145        40.435    25081067.60442
 102702810.36842     -1820.98842        32.953
  21249350.96249 111666191.10149     -2342.94549        48.131    21249350.88846
  87012664.28746     -1825.67646        42.109
  22302043.51447 117198066.12847      1474.92247        45.056    22302043.62644
  91323197.46944      1149.28544        37.013
  21873937.68348 114948378.52648      2763.93848        45.952    21873938.08245
  89570215.27545      2153.71545        40.400
  24834786.90743 130507676.75543      2079.98843        36.441    24834786.95941
 101694305.21141      1620.76641        27.852
  21663467.87848 113842331.72148      1951.85548        46.734    21663467.99345
  88708326.82345      1520.92245        40.173
  20252887.09149 106429721.50849      -869.98449        47.794    20252886.79247
  82932290.53447      -677.91447        44.921
  22920733.50147 120449303.55247      3040.03147        44.126    22920735.55143
  93856622.83843      2368.85243        35.876
  24232420.83045 127342201.06345     -3393.43445        40.326    24232425.68743
  99227733.33643     -2644.24243        36.008
  23836717.64645 125262782.60045       458.33645        40.895    23836721.32944
  97607391.87444       357.14144        36.839
  20259649.15249 106465231.49449      -247.39149        49.852    20259648.69048
  82959934.19348      -192.77348        46.620
 21  5 25  0  5 30.0000000  0 11G 2G 5G13G15G16G18G20G23G25G26G29
  25094415.09845 131872054.95545     -2338.80945        39.214    25094414.37842
 102757461.21242     -1822.45342        33.009
  21262757.60749 111736642.25149     -2353.80949        47.993    21262757.15246
  87067561.28146     -1834.14146        42.316
  22293673.00647 117154079.57547      1457.39847        44.800    22293673.48243
  91288922.25343      1135.63343        34.724
  21858196.46148 114865657.85248      2750.69948        46.386    21858196.94445
  89505757.64845      2143.39845        40.417
  24822957.26044 130445512.09644      2065.05544        37.598    24822958.19543
 101645865.22343      1609.12543        35.546
  21652340.15648 113783855.95948      1946.52348        46.604    21652340.41045
  88662761.32245      1516.77045        39.588
  20257891.66249 106456020.73349      -883.20749        47.981    20257891.35747
  82952783.42947      -688.21547        44.661
  22903403.31747 120358232.34847      3031.48847        44.130    22903404.88143
  93785658.29843      2362.19543        36.576
  24251795.41445 127444015.33045     -3394.13345        39.222    24251800.30443
  99307069.04943     -2644.78143        35.009
  23834152.91645 125249305.81345       440.27345        40.049    23834156.73044
  97596890.44744       343.06644        37.698
  20261112.86449 106472923.08249      -265.40649        49.973    20261112.32448
  82965927.63948      -206.81248        46.447
 21  5 25  0  6  0.0000000  0 11G 2G 5G13G15G16G18G20G23G25G26G29
  25107774.67544 131942259.71644     -2341.42644        38.022    25107774.11542
 102812166.13542     -1824.49642        32.511
  21276225.65249 111807416.83249     -2364.53949        48.091    21276225.22446
  87122710.28546     -1842.50046        42.397
  22285401.93647 117110616.24047      1439.92647        44.908    22285402.89243
  91255054.77343      1122.01643        36.586
  21842531.11948 114783334.98148      2737.36348        46.644    21842531.42745
  89441609.98945      2133.00845        40.637
  24811217.35944 130383817.99444      2048.54744        37.761    24811218.77441
 101597792.00041      1596.26641        31.114
  21641243.00348 113725539.93648      1941.18048        46.820    21641243.18045
  88617320.26945      1512.60545        39.668
  20262970.86849 106482711.75949      -896.31249        48.263    20262970.51847
  82973581.62747      -698.43047        44.622
  22886120.86646 120267412.89646      3023.05546        43.083    22886122.21944
  93714889.95244      2355.62544        37.047
  24271172.23545 127545841.30045     -3394.28145        39.831    24271176.98442
  99386413.85842     -2644.89842        33.848
  23831690.25445 125236364.83745       422.41445        40.167    23831694.08345
  97586806.59345       329.15245        39.134
  20262679.06649 106481153.30549      -283.39149        49.965    20262678.59048
  82972340.80248      -220.82848        46.591
 21  5 25  0  6 30.0000000  0 11G 2G 5G13G15G16G18G20G23G25G26G29
  25121147.89444 132012533.70444     -2343.41444        38.847    25121147.22841
 102866925.08341     -1826.03941        29.647
  21289754.78149 111878512.04749     -2375.17249        47.957    21289754.22546
  87178109.15046     -1850.78546        42.626
  22277231.18547 117067678.69347      1422.34847        45.122    22277232.06944
  91221596.99144      1108.32044        37.104
  21826942.00148 114701413.03148      2724.00048        46.614    21826942.34945
  89377774.75145      2122.59445        40.653
  24799567.82344 130322596.60544      2032.70744        38.235    24799568.05243
 101550087.08143      1583.92643        35.494
  21630176.26648 113667384.12348      1935.60248        46.434    21630176.56145
  88572004.07745      1508.25845        40.398
  20268124.36149 106509792.83649      -909.14149        48.251    20268123.84047
  82994683.75947      -708.42647        44.320
  22868886.10246 120176846.43546      3014.67646        43.219    22868888.02044
  93644318.76544      2349.09444        36.954
  24290550.78944 127647676.07744     -3394.97744        38.738    24290555.29544
  99465765.56044     -2645.44144        36.763
  23829329.67646 125223959.67946       404.28146        41.190    23829333.52743
  97577140.22343       315.02043        34.525
  20264347.82749 106489922.89649      -301.35549        49.911    20264347.49548
  82979174.24248      -234.82448        46.437
 21  5 25  0  7  0.0000000  0 11G 2G 5G13G15G16G18G20G23G25G26G29
  25134533.95945 132082867.27645     -2346.11745        39.295    25134533.20243
 102921711.14243     -1828.14843        35.761
  21303344.52449 111949926.01049     -2385.96949        47.978    21303343.86046
  87233756.38346     -1859.19946        41.751
  22269161.03148 117025268.76548      1404.75448        45.665    22269161.65943
  91188550.33743      1094.60943        35.914
  21811429.75248 114619894.84248      2710.48048        46.772    21811430.11146
  89314254.13846      2112.05946        41.511
  24788008.22144 130261849.77044      2016.61744        38.012    24788007.77141
 101502751.83941      1571.37941        29.889
  21619140.02648 113609389.02048      1930.50448        46.620    21619140.64245
  88526813.10845      1504.28545        40.390
  20273351.86749 106537262.96849      -922.06249        48.116    20273351.10447
  83016089.06347      -718.49247        44.742
  22851700.06447 120086534.20947      3006.10247        43.582    22851702.16043
  93573945.66843      2342.41443        36.407
  24309930.34144 127749516.83144     -3394.69144        38.793    24309935.15243
  99545121.85443     -2645.22343        36.245
  23827070.92446 125212090.24146       386.87946        41.580    23827075.31344
  97567891.29844       301.46144        37.501
  20266119.37549 106499232.44049      -319.27749        49.847    20266119.08248
  82986428.42948      -248.78948        46.466
 21  5 25  0  7 30.0000000  0 11G 2G 5G13G15G16G18G20G23G25G26G29
  25147933.80745 132153280.20545     -2348.10945        39.965    25147934.02543
 102976578.28343     -1829.69943        34.800
  21316994.38548 112021656.66648     -2396.13348        47.660    21316993.71146
  87289650.39446     -1867.12146        42.576
  22261191.71847 116983388.76547      1387.04347        44.694    22261192.13543
  91155916.59143      1080.80943        36.599
  21795994.90848 114538783.86948      2696.83248        46.304    21795995.53846
  89251050.83946      2101.42646        41.329
  24776538.85344 130201579.48944      2000.93844        37.845    24776539.08541
 101455788.01241      1559.16441        28.480
  21608134.56748 113551555.12348      1925.08248        46.668    21608135.18345
  88481747.75945      1500.06245        40.754
  20278652.99649 106565120.77449      -935.04349        48.033    20278652.03647
  83037796.44547      -728.60947        44.828
  22834563.03447 119996477.56947      2997.56247        43.816    22834564.82645
  93503771.68445      2335.76245        39.061
  24329310.68845 127851360.62945     -3394.76245        39.974    24329315.29942
  99624480.61842     -2645.27342        33.568
  23824914.16645 125200756.49345       369.20345        40.622    23824918.85543
  97559059.80543       287.68843        35.345
  20267993.75449 106509082.42849      -337.39149        49.862    20267993.52848
  82994103.74048      -262.90648        46.271
 21  5 25  0  8  0.0000000  0 11G 2G 5G13G15G16G18G20G23G25G26G29
  25161346.94145 132223762.87445     -2350.55145        39.058    25161345.23643
 103031499.84843     -1831.60243        35.406
  21330703.84549 112093701.10349     -2406.67249        47.798    21330703.25046
  87345788.90346     -1875.33246        42.059
  22253323.30247 116942040.76347      1369.40647        45.405    22253323.55743
  91123697.39043      1067.06643        35.977
  21780637.99248 114458083.06048      2683.12148        46.783    21780638.47045
  89188167.11445      2090.74245        40.567
  24765161.12745 130141787.48645      1985.11345        39.106    24765161.36841
 101409196.84141      1546.84041        29.066
  21597160.08248 113493882.92648      1919.75448        47.096    21597160.40545
  88436808.38245      1495.91045        40.612
  20284027.58449 106593364.76049      -947.85949        48.059    20284026.54247
  83059804.75947      -738.59447        44.675
  22817474.71847 119906677.59447      2988.97747        43.742    22817476.72344
  93433797.75044      2329.07044        38.772
  24348691.13345 127953204.59745     -3394.95345        38.942    24348695.69543
  99703839.47143     -2645.42643        36.068
  23822859.26345 125189958.41845       351.19145        40.941    23822863.89543
  97550645.69843       273.65243        34.941
  20269971.11449 106519473.51249      -355.46549        49.929    20269970.86948
  83002200.68248      -276.98848        46.416
 21  5 25  0  8 30.0000000  0 11G 2G 5G13G15G16G18G20G23G25G26G29
  25174772.18744 132294315.53644     -2352.94944        38.839    25174769.75541
 103086475.86541     -1833.47341        29.290
  21344472.61848 112166057.18148     -2416.96948        47.559    21344472.18746
  87402170.25846     -1883.35546        42.644
  22245556.57847 116901226.77347      1351.59447        44.767    22245556.79944
  91091894.33544      1053.19144        37.808
  21765359.67648 114377795.16548      2669.29348        46.956    21765359.87546
  89125605.14346      2079.96546        41.171
  24753874.65545 130082475.72145      1969.01245        38.911    24753874.81841
 101362979.96141      1534.29341        29.334
  21586216.35548 113436372.95048      1914.23448        47.244    21586216.56145
  88391995.43245      1491.60945        40.560
  20289475.35849 106621993.31949      -960.72749        48.117    20289474.42947
  83082112.73547      -748.62147        44.211
  22800435.47847 119817135.55847      2980.66847        44.349    22800437.41544
  93364024.78444      2322.59444        38.552
  24368071.31845 128055045.85245     -3394.74645        40.656    24368075.70841
  99783196.19841     -2645.26241        31.884
  23820906.37146 125179695.78146       333.25046        41.948    23820910.98943
  97542648.84543       259.67243        35.312
  20272051.55849 106530406.19149      -373.41449        49.866    20272051.16048
  83010719.65648      -290.97748        46.217
 21  5 25  0  9  0.0000000  0 11G 2G 5G13G15G16G18G20G23G25G26G29
  25188210.80744 132364937.84344     -2355.05544        38.792    25188209.24541
 103141506.26441     -1835.10941        29.728
  21358300.41749 112238722.70249     -2427.31249        48.032    21358300.12346
  87458792.73246     -1891.41446        42.202
  22237892.29748 116860948.99448      1333.60948        45.838    22237892.22943
  91060509.06843      1039.17243        36.332
  21750160.46948 114297923.34448      2655.27048        46.674    21750160.54445
  89063367.38545      2069.03945        40.912
  24742679.29443 130023646.30843      1952.81643        36.061    24742680.59741
 101317138.89241      1521.67241        31.828
  21575303.68048 113379025.71048      1908.77048        47.164    21575303.79445
  88347309.27145      1487.35245        39.952
  20294996.06549 106651005.07849      -973.46549        48.093    20294995.14047
  83104719.31547      -758.54747        44.500
  22783445.46847 119727852.65347      2971.72747        43.866    22783447.31944
  93294453.76544      2315.63344        38.776
  24387450.33345 128156881.51345     -3394.60545        40.240    24387454.38044
  99862548.58544     -2645.14844        37.119
  23819055.46045 125169968.56345       315.25845        41.102    23819060.05743
  97535069.17343       245.65243        36.113
  20274235.17049 106541881.27949      -391.51249        49.833    20274234.72048
  83019661.28148      -305.07848        46.446
 21  5 25  0  9 30.0000000  0 11G 2G 5G13G15G16G18G20G23G25G26G29
  25201662.81945 132435630.38945     -2357.53545        40.094    25201662.41841
 103196591.23141     -1837.04341        32.158
  21372186.72748 112311695.38048     -2437.60948        47.732    21372186.34446
  87515654.56046     -1899.43846        41.811
  22230330.37048 116821210.00948      1315.71548        45.592    22230330.22844
  91029543.65644      1025.23044        36.738
  21735040.74348 114218470.43648      2641.42248        46.890    21735041.40045
  89001456.07645      2058.24645        41.084
  24731575.74744 129965300.86944      1936.90644        36.746    24731577.85643
 101271675.01343      1509.27743        35.319
  21564421.87048 113321841.64648      1903.32848        46.839    21564421.85845
  88302750.27445      1483.10945        40.243
  20300589.52649 106680398.81749      -986.06249        48.263    20300588.53847
  83127623.52947      -768.36347        43.973
  22766505.09747 119638830.12147      2963.05547        43.717    22766506.25344
  93225085.59144      2308.87144        37.435
  24406827.46344 128258708.74244     -3394.13344        38.803    24406831.19543
  99941894.39143     -2644.78143        34.559
  23817306.27145 125160776.53945       297.48045        40.258    23817311.03444
  97527906.57044       231.80144        36.891
  20276522.02749 106553898.91249      -409.69549        49.924    20276521.59948
  83029025.66748      -319.24648        46.410
 21  5 25  0 10  0.0000000  0 11G 2G 5G13G15G16G18G20G23G25G26G29
  25215128.85945 132506392.95245     -2359.65645        39.543    25215128.52543
 103251730.84543     -1838.68843        35.496
  21386130.97649 112384972.58849     -2447.73849        48.035    21386130.40546
  87572753.67646     -1907.33246        42.120
  22222870.77047 116782011.28847      1297.62547        45.076    22222871.25544
  90998999.24244      1011.13344        37.571
  21720001.91048 114139439.56748      2627.47748        47.225    21720002.70945
  88939873.62145      2047.38345        40.908
  24720565.35544 129907441.37244      1919.95344        37.949    24720567.13741
 101226589.69441      1496.06241        30.002
  21553571.28148 113264821.33348      1898.18048        47.002    21553571.24045
  88258318.85945      1479.09845        40.195
  20306255.29349 106710172.71049      -998.71949        48.137    20306254.28647
  83150823.97247      -778.22747        44.385
  22749614.57947 119550069.15447      2954.32047        43.646    22749615.47344
  93155921.24844      2302.06644        37.438
  24426202.35845 128360524.75645     -3393.77345        40.081    24426206.53542
 100021231.46542     -2644.50442        32.523
  23815658.79545 125152119.50845       279.73445        40.365    23815663.06245
  97521160.81645       217.97345        39.736
  20278912.33549 106566459.71149      -427.71549        49.921    20278911.76748
  83038813.30448      -333.28948        46.381
 21  5 25  0 10 30.0000000  0 11G 2G 5G13G15G16G18G20G23G25G26G29
  25228607.78044 132577225.74944     -2362.28144        37.735    25228607.31743
 103306925.22243     -1840.74243        34.964
  21400132.84249 112458552.16949     -2457.70749        48.002    21400132.06846
  87630088.42346     -1915.09846        41.412
  22215514.50447 116743354.94647      1279.41847        45.430    22215514.82344
  90968877.44244       996.94544        37.395
  21705043.86148 114060833.82748      2613.01248        47.219    21705044.48945
  88878622.43545      2036.10945        40.932
  24709648.20144 129850069.93244      1904.55944        37.759    24709649.87341
 101181884.69341      1484.07041        30.173
  21542751.94348 113207965.33148      1892.38748        47.052    21542751.86945
  88214015.49745      1474.58245        40.956
  20311993.19649 106740325.93049     -1011.51649        48.044    20311992.34247
  83174319.99047      -788.19547        43.997
  22732773.85847 119461570.89847      2945.64547        44.395    22732774.94344
  93086961.64544      2295.30944        37.192
  24445574.60645 128462326.52845     -3392.65245        39.758    24445579.38342
 100100557.46842     -2643.62942        33.219
  23814113.17945 125143997.34845       261.56245        39.655    23814117.47643
  97514831.85843       203.81243        34.912
  20281406.00649 106579563.87849      -445.89549        49.871    20281405.43748
  83049024.34048      -347.45348        46.308
 21  5 25  0 11  0.0000000  0 11G 2G 5G13G15G16G18G20G23G25G26G29
  25242099.96844 132648129.21944     -2364.82044        38.588    25242100.06243
 103362174.60143     -1842.72343        35.293
  21414191.68949 112532431.90049     -2467.60949        47.993    21414190.96346
  87687657.04446     -1922.81646        41.699
  22208261.98648 116705242.85848      1261.33248        45.972    22208262.06644
  90939179.74344       982.85244        37.335
  21690167.17748 113982656.06748      2598.75448        47.171    21690167.86146
  88817704.73746      2025.00046        41.171
  24698824.29944 129793188.07044      1888.16844        38.311    24698824.89041
 101137561.11841      1471.29341        31.525
  21531963.86548 113151274.07848      1887.09848        47.105    21531963.73045
  88169840.51145      1470.46145        39.935
  20317802.99849 106770856.83949     -1024.12549        47.973    20317802.15047
  83198110.31847      -798.02347        44.285
  22715983.49847 119373336.57447      2936.62147        44.284    22715984.31044
  93018207.65644      2288.27344        37.569
  24464943.94245 128564111.47945     -3392.43845        40.351    24464948.58244
 100179870.29544     -2643.46144        37.499
  23812668.81345 125136409.78945       244.08245        39.738    23812673.59144
  97508919.47944       190.19144        37.223
  20284003.14149 106593211.95649      -463.99649        49.861    20284002.61548
  83059659.20748      -361.55948        46.094
 21  5 25  0 11 30.0000000  0 11G 2G 5G13G15G16G18G20G23G25G26G29
  25255605.74744 132719103.21344     -2366.80544        38.419    25255606.40244
 103417478.96944     -1844.26644        37.630
  21428307.02248 112606608.80948     -2477.44548        47.376    21428306.52646
  87745457.22946     -1930.48046        42.255
  22201113.71048 116667677.18448      1243.01248        46.205    22201113.31043
  90909907.81543       968.57843        35.784
  21675372.15048 113904909.16648      2584.31248        46.447    21675373.02345
  88757122.77645      2013.74645        41.110
  24688093.59643 129736797.63343      1871.92643        35.365    24688093.73541
 101093620.55841      1458.64541        26.224
  21521207.26848 113094748.14148      1881.48448        46.848    21521207.12745
  88125794.34545      1466.09045        40.249
  20323684.34349 106801763.90849     -1036.50849        47.972    20323683.52547
  83222193.74947      -807.67247        44.214
  22699243.56747 119285367.31347      2927.91847        43.957    22699244.62345
  92949660.23845      2281.49245        39.636
  24484309.45945 128665876.54545     -3391.79345        40.129    24484313.93143
 100259167.66943     -2642.96143        35.274
  23811326.69545 125129356.58045       225.89545        39.986    23811331.23142
  97503423.48242       176.02042        33.686
  20286703.86249 106607404.60149      -482.19949        49.753    20286703.38548
  83070718.41048      -375.74248        46.125
 21  5 25  0 12  0.0000000  0 11G 2G 5G13G15G16G18G20G23G25G26G29
  25269124.89744 132790147.62544     -2369.29744        38.416    25269126.00343
 103472838.21343     -1846.20343        34.891
  21442478.46248 112681080.93948     -2487.19948        47.761    21442478.11146
  87803487.44646     -1938.08246        41.660
  22194069.73648 116630660.04348      1224.79748        45.808    22194069.14143
  90881063.29043       954.38343        36.357
  21660659.87348 113827596.39348      2569.79748        46.733    21660660.61445
  88696879.07945      2002.43845        40.598
  24677456.48644 129680900.40844      1855.14144        37.253    24677457.48641
 101050064.39641      1445.57041        20.250
  21510482.37648 113038388.09448      1875.86348        46.923    21510482.04545
  88081877.43045      1461.70745        40.362
  20329636.90749 106833045.57949     -1049.02349        48.046    20329636.19247
  83246569.07947      -817.42647        44.324
  22682554.19947 119197664.30047      2919.05947        44.546    22682555.44744
  92881320.27944      2274.71144        38.748
  24503670.36845 128767618.98945     -3391.05545        39.844    24503674.90241
 100338447.41241     -2642.38741        28.604
  23810086.21645 125122837.40045       208.32045        40.319    23810090.79743
  97498343.61243       162.32443        35.556
  20289508.23349 106622142.06749      -500.28949        49.822    20289507.92148
  83082202.14548      -389.84048        46.457
 21  5 25  0 12 30.0000000  0 11G 2G 5G13G15G16G18G20G23G25G26G29
  25282657.62144 132861262.85644     -2371.99644        37.158    25282658.42143
 103528252.59343     -1848.31243        35.870
  21456705.81048 112755846.14248     -2497.03548        47.563    21456705.45646
  87861746.03046     -1945.74646        41.527
  22187130.00447 116594193.06847      1206.53147        44.830    22187130.19043
  90852647.49543       940.15243        36.295
  21646030.66248 113750720.42548      2555.21948        46.554    21646031.49245
  88636975.75645      1991.07845        41.008
  24666913.97244 129625498.36444      1838.78944        37.898    24666914.97143
 101006893.99143      1432.82043        35.132
  21499788.99148 112982194.54048      1870.27048        46.436    21499788.90645
  88038090.26145      1457.35245        40.352
  20335660.66349 106864700.20849     -1061.36749        48.273    20335659.84447
  83271235.02547      -827.04347        43.881
  22665915.75647 119110228.68347      2910.16847        43.650    22665916.89045
  92813188.65345      2267.66045        39.283
  24523026.49645 128869335.94845     -3390.00845        39.545    24523031.46743
 100417707.28843     -2641.56643        35.638
  23808946.98745 125116852.03645       190.23445        39.947    23808951.67343
  97493679.69843       148.23043        34.820
  20292416.44249 106637424.80349      -518.48849        49.745    20292416.21748
  83094110.75948      -404.02048        46.331
 21  5 25  0 13  0.0000000  0 11G 2G 5G13G15G16G18G20G23G25G26G29
  25296204.01744 132932448.94144     -2373.87544        38.578    25296204.78242
 103583722.26242     -1849.77742        33.826
  21470988.51948 112830902.03548     -2506.75448        47.709    21470988.09046
  87920231.12046     -1953.31646        41.784
  22180295.28847 116558278.29347      1187.87947        44.828    22180295.91544
  90824661.98044       925.61744        37.562
  21631485.36148 113674284.45448      2540.59448        46.567    21631486.31946
  88577415.28546      1979.68046        41.295
  24656466.65145 129570593.43845      1821.97745        41.056    24656467.09842
 100964110.98342      1419.71942        32.770
  21489127.17048 112926167.79848      1864.77348        46.976    21489127.32345
  87994433.08345      1453.05945        40.708
  20341755.20349 106896726.76749     -1073.78149        48.309    20341754.40347
  83296190.78247      -836.71547        44.244
  22649327.84947 119023061.60347      2900.95747        44.068    22649329.66944
  92745266.31744      2260.48444        37.810
  24542377.08345 128971024.65545     -3389.05145        39.697    24542382.31141
 100496945.16041     -2640.82041        32.005
  23807909.40445 125111400.12445       172.80945        40.024    23807914.07043
  97489431.46143       134.64843        35.844
  20295428.44949 106653252.99549      -536.68449        49.682    20295428.19348
  83106444.40648      -418.19948        46.697
 21  5 25  0 13 30.0000000  0 11G 2G 5G13G15G16G18G20G23G25G26G29
  25309763.74544 133003705.97944     -2376.53544        37.769    25309764.36741
 103639247.12541     -1851.85541        28.924
  21485326.10148 112906246.35448     -2516.30948        47.547    21485325.58546
  87978940.97046     -1960.76246        42.041
  22173566.32348 116522917.59548      1169.39848        45.727    22173566.75044
  90797108.23444       911.21944        36.843
  21617024.24048 113598291.14748      2525.74248        46.733    21617025.22146
  88518199.74746      1968.10946        42.194
  24646114.34345 129516187.00345      1804.89545        40.697    24646113.51142
 100921716.34042      1406.40642        32.674
  21478497.61148 112870308.51648      1859.28548        47.121    21478497.77745
  87950906.38845      1448.78945        40.695
  20347920.29149 106929123.95449     -1086.07049        48.219    20347919.51447
  83321435.33947      -846.29347        44.762
  22632791.64147 118936164.21747      2891.89547        44.517    22632793.43944
  92677554.10244      2253.41444        38.075
  24561721.63244 129072682.31844     -3387.98844        36.862    24561726.94441
 100576158.79141     -2639.99641        32.143
  23806973.42145 125106481.34445       154.42645        39.540    23806978.00244
  97485598.67544       120.32844        36.713
  20298544.33749 106669627.06649      -555.01249        49.647    20298543.95748
  83119203.41348      -432.48048        46.329
 21  5 25  0 14  0.0000000  0 11G 2G 5G13G15G16G18G20G23G25G26G29
  25323337.15245 133075034.33245     -2378.77345        38.994    25323337.16543
 103694827.61743     -1853.59443        35.252
  21499718.26748 112981877.35648     -2525.71548        47.730    21499717.73446
  88037874.19746     -1968.09446        41.669
  22166943.48748 116488112.99948      1150.88748        46.017    22166943.51943
  90769987.77143       896.76643        36.547
  21602647.75248 113522743.31648      2510.80948        46.318    21602648.91146
  88459331.34746      1956.47346        41.574
  24635856.32944 129462280.82244      1788.15244        37.563    24635854.52342
 100879711.50142      1393.36342        33.387
  21467900.12148 112814617.30548      1853.50848        47.046    21467900.13945
  87907510.65845      1444.28945        41.024
  20354155.59949 106961889.79349     -1098.29349        48.632    20354154.72747
  83346967.16047      -855.81647        44.361
  22616307.18447 118849537.66847      2883.10947        44.046    22616308.93945
  92610052.95645      2246.57445        39.013
  24581060.00745 129174306.03045     -3386.80145        38.909    24581065.15842
 100655345.98742     -2639.07442        33.111
  23806138.85745 125102095.28245       137.22345        39.969    23806143.23544
  97482180.98944       106.92244        37.824
  20301764.26649 106686547.40649      -573.02049        49.996    20301763.75148
  83132388.08548      -446.51248        46.084
 21  5 25  0 14 30.0000000  0 10G 2G 5G13G15G18G20G23G25G26G29
  25336924.49744 133146433.75344     -2381.00044        38.756    25336924.58643
 103750463.44743     -1855.32843        35.497
  21514164.34949 113057791.44349     -2535.14849        47.836    21514163.67046
  88097028.01646     -1975.44546        42.082
  22160426.62648 116453866.00648      1132.20348        46.141    22160426.43644
  90743301.83544       882.23444        36.827
  21588356.69348 113447644.20548      2495.80948        46.584    21588357.67845
  88400812.58945      1944.78145        40.931
  21457334.46948 112759094.70648      1847.96948        46.862    21457334.46646
  87864246.30646      1439.97346        41.739
  20360460.80649 106995023.11849     -1110.68049        48.496    20360460.06347
  83372785.33147      -865.46947        44.505
  22599874.57947 118763183.06647      2873.99647        44.660    22599876.34544
  92542763.69044      2239.47344        38.852
  24600391.72145 129275893.09145     -3385.49245        39.009    24600396.38843
 100734504.64643     -2638.05543        36.548
  23805405.74245 125098241.60945       119.57445        40.137    23805410.16644
  97479178.13744        93.17244        36.785
  20305088.09649 106704014.09949      -591.26649        49.647    20305087.60248
  83145998.48848      -460.73048        46.428
 21  5 25  0 15  0.0000000  0 11G 2G 5G13G15G16G18G20G23G25G26G29
  25350525.11844 133217904.58644     -2383.50044        38.487    25350524.92043
 103806154.89643     -1857.28143        35.756
  21528663.95348 113133986.95848     -2544.48048        47.731    21528663.18946
  88156401.13046     -1982.71546        41.603
  22154016.26548 116420178.70548      1113.78548        45.565    22154015.68144
  90717051.99844       867.88344        37.506
  21574151.50648 113372996.54348      2480.83648        46.066    21574152.41046
  88342645.62646      1933.11746        41.677
  24615626.23645 129355962.27045      1754.75445        39.231    24615625.44542
 100796849.89742      1367.33642        33.298
  21446800.91948 112703741.27048      1842.34448        46.834    21446801.24845
  87821113.77145      1435.59045        40.681
  20366835.52849 107028522.39649     -1122.87549        48.214    20366834.93147
  83398888.65347      -874.97347        44.642
  22583493.91547 118677101.50647      2864.94947        44.678    22583495.54644
  92475687.19244      2232.27044        38.696
  24619715.81744 129377440.70244     -3384.16044        37.738    24619720.32142
 100813632.52042     -2637.02042        34.117
  23804774.04545 125094919.92445       101.76645        40.373    23804777.91144
  97476589.81844        79.29344        37.540
  20308515.89249 106722027.57349      -609.69149        49.752    20308515.58648
  83160034.95548      -475.08648        46.615
 21  5 25  0 15 30.0000000  0 11G 2G 5G13G15G16G18G20G23G25G26G29
  25364139.28545 133289446.76545     -2385.76245        40.641    25364138.73142
 103861902.04742     -1859.03942        32.507
  21543216.71748 113210461.79648     -2553.87948        47.573    21543215.87846
  88215991.90146     -1990.03946        41.344
  22147712.52548 116387052.88448      1094.82848        45.723    22147712.63544
  90691239.69444       853.10944        37.967
  21560033.18348 113298803.18448      2465.44548        47.338    21560033.74845
  88284832.64145      1921.12145        41.091
  24605656.02045 129303567.56345      1737.84045        40.753    24605655.92342
 100756022.86442      1354.15642        33.203
  21436299.65048 112648557.54548      1836.67648        46.828    21436300.30846
  87778113.48946      1431.17246        42.025
  20373279.56349 107062386.03849     -1134.95749        48.213    20373278.97647
  83425275.90347      -884.38747        44.554
  22567165.47247 118591294.13347      2855.84847        44.741    22567166.88844
  92408824.34244      2225.33244        38.174
  24639031.28244 129478946.12244     -3382.96144        37.629    24639036.06844
 100892727.52844     -2636.08644        37.106
  23804242.90845 125092129.75645        83.86345        40.229    23804246.61344
  97474415.68644        65.34444        38.155
  20312047.92549 106740588.65349      -627.79349        49.713    20312047.73248
  83174498.12448      -489.19148        46.423
 21  5 25  0 16  0.0000000  0 11G 2G 5G13G15G16G18G20G23G25G26G29
  25377767.37845 133361060.23745     -2388.24245        39.911    25377766.47843
 103917704.65243     -1860.97743        35.212
  21557821.88748 113287213.43048     -2562.95348        47.440    21557821.23846
  88275798.34246     -1997.10946        41.365
  22141515.91448 116354490.33348      1075.94548        45.825    22141516.55944
  90665866.30544       838.39544        37.283
  21546001.91048 113225067.18148      2450.22748        46.626    21546002.30245
  88227376.04345      1909.26645        41.004
  24595782.51244 129251679.84444      1721.19944        38.651    24595781.86042
 100715590.89042      1341.19142        32.658
  21425830.92548 112593544.15348      1830.85548        47.153    21425831.53145
  87735245.92445      1426.63745        40.560
  20379792.51949 107096612.67749     -1147.03949        48.055    20379792.02147
  83451946.01147      -893.80147        44.257
  22550889.25247 118505761.91147      2846.69147        44.834    22550890.64044
  92342175.92144      2218.19944        37.759
  24658338.47844 129580406.48844     -3381.14844        37.490    24658343.34042
 100971787.43442     -2634.66442        33.614
  23803812.86145 125089870.59945        66.66445        40.362    23803817.03244
  97472655.31644        51.94144        37.938
  20315684.15049 106759696.56349      -645.97749        49.987    20315683.93448
  83189387.40148      -503.36348        46.142
 21  5 25  0 16 30.0000000  0 11G 2G 5G13G15G16G18G20G23G25G26G29
  25391408.22143 133432745.44743     -2390.44143        34.649    25391408.01644
 103973563.22044     -1862.68444        38.411
  21572479.31148 113364239.78248     -2572.11348        47.054    21572478.80346
  88335818.86946     -2004.24646        41.557
  22135427.01148 116322492.53548      1057.21148        45.724    22135427.53444
  90640932.98344       823.79744        37.061
  21532057.86848 113151791.13148      2434.97348        46.733    21532058.35546
  88170277.85646      1897.37946        41.938
  24586004.05542 129200300.40342      1704.19942        33.775    24586004.85141
 100675555.05241      1327.94541        29.033
  21415394.79448 112538701.64648      1825.16448        46.768    21415395.52546
  87692511.52246      1422.20346        41.668
  20386374.39249 107131200.80349     -1159.01249        48.116    20386373.89547
  83478897.80047      -903.12947        44.217
  22534665.77847 118420506.13147      2837.29347        45.029    22534666.74044
  92275742.88644      2210.87544        38.356
  24677636.55444 129681819.05244     -3379.66444        37.721    24677641.99442
 101050810.11642     -2633.50842        33.607
  23803483.82245 125088142.04145        48.57845        40.191    23803488.00443
  97471308.40743        37.85243        35.623
  20319424.52649 106779352.05449      -664.22349        49.664    20319424.41248
  83204703.36048      -517.57848        46.433
 21  5 25  0 17  0.0000000  0 11G 2G 5G13G15G16G18G20G23G25G26G29
  25405062.21644 133504502.15744     -2393.17644        38.191    25405062.94842
 104029477.36042     -1864.82042        33.366
  21587188.58648 113441538.08448     -2581.04348        47.280    21587188.27046
  88396051.28346     -2011.20746        41.985
  22129445.86348 116291061.65148      1038.15648        45.655    22129445.79844
  90616441.39544       808.94944        37.083
  21518201.94148 113078977.98348      2419.36348        46.409    21518202.52146
  88113540.37846      1885.21546        41.837
  24576323.55543 129149437.33843      1687.09443        35.551    24576323.68742
 100635940.85542      1314.61342        32.492
  21404991.24148 112484030.57448      1819.55548        47.173    21404991.96946
  87649910.70946      1417.83246        41.516
  20393024.79649 107166148.95449     -1171.17249        48.314    20393024.12547
  83506130.11647      -912.60547        44.065
  22518494.97048 118335527.83148      2827.86348        45.664    22518495.70144
  92209526.06944      2203.52744        37.491
  24696924.93444 129783181.12944     -3377.93044        37.230    24696930.87742
 101129793.42842     -2632.15642        33.201
  23803256.10446 125086943.58946        31.03546        41.241    23803260.22443
  97470374.56043        24.18043        35.036
  20323269.10349 106799555.25349      -682.67649        49.734    20323269.03948
  83220446.10948      -531.95748        46.570
 21  5 25  0 17 30.0000000  0 11G 2G 5G13G15G16G18G20G23G25G26G29
  25418731.00644 133576330.71144     -2395.62544        38.559    25418731.43544
 104085447.65144     -1866.72344        37.424
  21601949.38248 113519106.21448     -2590.14548        47.755    21601949.18946
  88456493.96446     -2018.29746        41.513
  22123572.58047 116260198.97947      1019.19947        45.319    22123572.24944
  90592392.59444       794.18044        36.688
  21504434.56048 113006630.48248      2403.76648        46.602    21504435.13046
  88057165.74646      1873.06246        41.298
  24566741.94245 129099080.37545      1670.17645        38.914    24566740.99142
 100596701.69742      1301.43442        34.042
  21394620.54748 112429531.58948      1813.85248        47.008    21394621.06946
  87607443.97446      1413.38746        41.517
  20399743.47949 107201455.60549     -1182.76249        48.235    20399742.47547
  83533641.80147      -921.63747        44.072
  22502377.11047 118250828.02347      2818.50047        45.483    22502377.74443
  92143526.24843      2196.23043        36.610
  24716203.57644 129884489.89244     -3376.10544        37.993    24716209.00743
 101208735.16643     -2630.74243        36.225
  23803128.93746 125086274.70546        13.46146        41.274    23803132.89343
  97469853.36343        10.48443        34.862
  20327217.87549 106820306.04849      -700.91449        49.799    20327217.75948
  83236615.54748      -546.17248        46.083
 21  5 25  0 18  0.0000000  0 11G 2G 5G13G15G16G18G20G23G25G26G29
  25432413.50944 133648231.25944     -2398.04344        37.890    25432414.35942
 104141473.94242     -1868.61742        33.824
  21616761.28148 113596942.31448     -2598.99648        47.568    21616761.14746
  88517145.45646     -2025.19546        42.540
  22117807.93247 116229906.45547      1000.34847        45.359    22117807.62243
  90568788.01343       779.48843        36.566
  21490756.49048 112934751.47948      2388.17648        47.302    21490756.84346
  88001156.16846      1860.91446        41.183
  24557257.45345 129049236.95445      1652.78945        39.366    24557257.15741
 100557862.71041      1287.88341        30.710
  21384282.43948 112375205.23648      1808.08648        46.990    21384282.89346
  87565111.77246      1408.89546        41.390
  20406530.05749 107237119.36949     -1194.59049        48.343    20406529.12247
  83561431.74747      -930.85247        43.408
  22486312.42647 118166407.76447      2809.22347        45.311    22486313.16744
  92077744.26944      2189.00044        38.507
  24735471.66144 129985742.60544     -3374.14844        38.298    24735476.54642
 101287633.25642     -2629.21942        32.598
  23803102.44246 125086134.79046        -4.06646        41.686    23803106.40643
  97469744.36743        -3.17243        35.414
  20331270.97249 106841605.22349      -719.01249        49.694    20331270.79148
  83253212.30548      -560.27348        46.040
 21  5 25  0 18 30.0000000  0 11G 2G 5G13G15G16G18G20G23G25G26G29
  25446109.05743 133720203.69843     -2400.41843        35.764    25446110.41742
 104197556.29642     -1870.46542        34.061
  21631623.40948 113675043.48248     -2607.75848        47.201    21631623.04346
  88578003.51446     -2032.02346        41.691
  22112152.37548 116200185.65948       981.13348        45.836    22112152.08644
  90545628.99144       764.51644        36.691
  21477168.20848 112863343.67048      2372.41048        47.230    21477168.04845
  87945513.74345      1848.62945        40.783
  24547870.79145 128999908.59545      1636.11745        39.247    24547869.90742
 100519425.05542      1274.90242        32.705
  21373977.37248 112321052.11948      1801.99248        46.801    21373977.72846
  87522914.55546      1404.14846        41.583
  20413384.33249 107273138.71549     -1206.62549        48.557    20413383.50347
  83589498.77347      -940.23047        43.709
  22470300.93947 118082268.13947      2800.02747        44.749    22470302.16244
  92012180.97944      2181.83644        37.931
  24754728.40844 130086936.60944     -3372.73444        38.414    24754733.42741
 101366485.64141     -2628.10941        28.401
  23803176.33346 125086523.32046       -21.57446        41.116    23803180.44943
  97470047.10143       -16.81243        36.121
  20335428.23749 106863452.28149      -737.30549        49.621    20335428.14148
  83270235.98748      -574.52748        46.330
 21  5 25  0 19  0.0000000  0 11G 2G 5G13G15G16G18G20G23G25G26G29
  25459818.84144 133792248.28644     -2402.42644        38.476    25459820.09742
 104253694.82942     -1872.02742        34.400
  21646535.58248 113753407.98048     -2616.46148        47.083    21646535.01545
  88639066.75145     -2038.80545        41.022
  22106606.15548 116171038.33148       961.91048        46.178    22106605.65944
  90522916.79544       749.53944        36.682
  21463669.97748 112792410.08248      2356.70748        47.378    21463669.83845
  87890240.85345      1836.39145        40.548
  24538581.77044 128951096.83944      1618.41044        37.657    24538581.04943
 100481389.93143      1261.09443        35.626
  21363705.39148 112267072.82048      1796.41048        46.747    21363705.74646
  87480852.77946      1399.79746        41.710
  20420305.92249 107309511.93249     -1218.28949        48.571    20420304.96947
  83617841.54147      -949.32047        43.854
  22454343.29147 117998410.21847      2790.68047        44.839    22454344.49944
  91946837.18844      2174.55144        37.795
  24773973.50644 130188069.03344     -3370.17244        37.965    24773977.90441
 101445289.97641     -2626.11741        32.042
  23803350.60145 125087439.73745       -39.48445        40.284    23803354.54244
  97470761.17044       -30.77344        36.953
  20339689.89749 106885847.66249      -755.61749        49.652    20339689.91148
  83287686.92248      -588.79748        46.221
 21  5 25  0 19 30.0000000  0 11G 2G 5G13G15G16G18G20G23G25G26G29
  25473542.67145 133864364.66945     -2404.87545        40.106    25473543.02241
 104309889.39241     -1873.93041        30.931
  21661497.47048 113832033.20148     -2625.25448        47.237    21661496.82846
  88700333.16146     -2045.65646        41.181
  22101169.40848 116142466.03148       942.82048        46.181    22101168.89143
  90500652.65243       734.66043        35.922
  21450262.27748 112721953.24548      2340.68848        46.704    21450262.27346
  87835339.44646      1823.91046        41.513
  24529390.99044 128902803.26544      1601.41844        37.781    24529390.83942
 100443758.59242      1247.85242        33.674
  21353466.69648 112213267.98848      1790.54348        46.966    21353467.18046
  87438926.95346      1395.22746        41.738
  20427294.58449 107346237.54049     -1229.94149        48.493    20427293.48647
  83646458.90547      -958.39847        43.403
  22438439.26847 117914835.02247      2781.13347        45.024    22438440.52845
  91881713.71745      2167.06645        39.598
  24793206.39045 130289137.24445     -3367.65245        39.608    24793210.61141
 101524044.35141     -2624.14841        27.779
  23803625.15245 125088883.31845       -56.96145        40.817    23803629.03743
  97471886.09543       -44.38743        36.111
  20344055.96949 106908791.40649      -773.94149        49.640    20344056.10748
  83305565.16248      -603.07448        46.216
